{
    "אבליים": {
        "name": "אבליים",
        "type": "דרישה",
        "EAST": "35° 09' 05\" E ",
        "NORTH": "32° 49' 26\" N ",
        "CODE": "EVLYM",
        "LONG": 35.15138889,
        "LAT": 32.82388889,
        "atc_switch": false,
        "DMS": "N032.49.26.000;E035.09.05.000;"
    },
    "אוהלים": {
        "name": "אוהלים",
        "type": "דרישה",
        "EAST": "34° 48' 17\" E ",
        "NORTH": "31° 11' 28\" N ",
        "CODE": "OHLIM",
        "LONG": 34.80472222,
        "LAT": 31.19111111,
        "atc_switch": false,
        "DMS": "N031.11.28.000;E034.48.17.000;"
    },
    "אולגה": {
        "name": "אולגה",
        "type": "דרישה",
        "EAST": "34° 51' 57\" E ",
        "NORTH": "32° 25' 53\" N ",
        "CODE": "OLGAH",
        "LONG": 34.86583333,
        "LAT": 32.43138889,
        "atc_switch": false,
        "DMS": "N032.25.53.000;E034.51.57.000;"
    },
    "אופקים": {
        "name": "אופקים",
        "type": "דרישה",
        "EAST": "34° 37' 08\" E ",
        "NORTH": "31° 19' 20\" N ",
        "CODE": "OFKIM",
        "LONG": 34.61888889,
        "LAT": 31.32222222,
        "atc_switch": false,
        "DMS": "N031.19.20.000;E034.37.08.000;"
    },
    "אורים": {
        "name": "אורים",
        "type": "דרישה",
        "EAST": "34° 31' 47\" E ",
        "NORTH": "31° 18' 28\" N ",
        "CODE": "URRIM",
        "LONG": 34.52972222,
        "LAT": 31.30777778,
        "atc_switch": false,
        "DMS": "N031.18.28.000;E034.31.47.000;"
    },
    "אחיהוד": {
        "name": "אחיהוד",
        "type": "דרישה",
        "EAST": "35° 10' 52\" E ",
        "NORTH": "32° 54' 43\" N ",
        "CODE": "AHIUD",
        "LONG": 35.18111111,
        "LAT": 32.91194444,
        "atc_switch": false,
        "DMS": "N032.54.43.000;E035.10.52.000;"
    },
    "איילון": {
        "name": "איילון",
        "type": "חובה",
        "EAST": "34° 56' 37\" E ",
        "NORTH": "31° 52' 18\" N ",
        "CODE": "AYLON",
        "LONG": 34.94361111,
        "LAT": 31.87166667,
        "atc_switch": true,
        "DMS": "N031.52.18.000;E034.56.37.000;"
    },
    "אילת": {
        "name": "אילת",
        "type": "דרישה",
        "EAST": "34° 57' 32\" E ",
        "NORTH": "29° 33' 30\" N ",
        "CODE": "EILAT",
        "LONG": 34.95888889,
        "LAT": 29.55833333,
        "atc_switch": false,
        "DMS": "N029.33.30.000;E034.57.32.000;"
    },
    "אלומות": {
        "name": "אלומות",
        "type": "דרישה",
        "EAST": "35° 32' 47\" E ",
        "NORTH": "32° 42' 51\" N ",
        "CODE": "ALUMT",
        "LONG": 35.54638889,
        "LAT": 32.71416667,
        "atc_switch": false,
        "DMS": "N032.42.51.000;E035.32.47.000;"
    },
    "אלון": {
        "name": "אלון",
        "type": "דרישה",
        "EAST": "35° 22' 00\" E ",
        "NORTH": "32° 02' 29\" N ",
        "CODE": "ALLON",
        "LONG": 35.36666667,
        "LAT": 32.04138889,
        "atc_switch": false,
        "DMS": "N032.02.29.000;E035.22.00.000;"
    },
    "אלמוג": {
        "name": "אלמוג",
        "type": "דרישה",
        "EAST": "35° 27' 23\" E ",
        "NORTH": "31° 47' 23\" N ",
        "CODE": "ALMOG",
        "LONG": 35.45638889,
        "LAT": 31.78972222,
        "atc_switch": false,
        "DMS": "N031.47.23.000;E035.27.23.000;"
    },
    "אמנון": {
        "name": "אמנון",
        "type": "דרישה",
        "EAST": "35° 34' 00\" E ",
        "NORTH": "32° 54' 20\" N ",
        "CODE": "AMNON",
        "LONG": 35.56666667,
        "LAT": 32.90555556,
        "atc_switch": false,
        "DMS": "N032.54.20.000;E035.34.00.000;"
    },
    "אסנת": {
        "name": "אסנת",
        "type": "דרישה",
        "EAST": "34° 31' 24\" E ",
        "NORTH": "31° 49' 58\" N ",
        "CODE": "OSNAT",
        "LONG": 34.52333333,
        "LAT": 31.83277778,
        "atc_switch": false,
        "DMS": "N031.49.58.000;E034.31.24.000;"
    },
    "אפולוניה": {
        "name": "אפולוניה",
        "type": "חובה",
        "EAST": "34° 47' 50\" E ",
        "NORTH": "32° 11' 28\" N ",
        "CODE": "APOLN",
        "LONG": 34.79722222,
        "LAT": 32.19111111,
        "atc_switch": false,
        "DMS": "N032.11.28.000;E034.47.50.000;"
    },
    "אפק": {
        "name": "אפק",
        "type": "חובה",
        "EAST": "35° 07' 40\" E ",
        "NORTH": "32° 50' 25\" N ",
        "CODE": "AFFEK",
        "LONG": 35.12777778,
        "LAT": 32.84027778,
        "atc_switch": true,
        "DMS": "N032.50.25.000;E035.07.40.000;"
    },
    "ארגמן": {
        "name": "ארגמן",
        "type": "דרישה",
        "EAST": "35° 31' 57\" E ",
        "NORTH": "32° 10' 23\" N ",
        "CODE": "ARGMN",
        "LONG": 35.5325,
        "LAT": 32.17305556,
        "atc_switch": false,
        "DMS": "N032.10.23.000;E035.31.57.000;"
    },
    "ארנה": {
        "name": "ארנה",
        "type": "חובה",
        "EAST": "34° 47' 08\" E ",
        "NORTH": "32° 09' 53\" N ",
        "CODE": "ARENA",
        "LONG": 34.78555556,
        "LAT": 32.16472222,
        "atc_switch": false,
        "DMS": "N032.09.53.000;E034.47.08.000;"
    },
    "אשל הנשיא": {
        "name": "אשל הנשיא",
        "type": "דרישה",
        "EAST": "34° 41' 54\" E ",
        "NORTH": "31° 19' 49\" N ",
        "CODE": "NASIH",
        "LONG": 34.69833333,
        "LAT": 31.33027778,
        "atc_switch": false,
        "DMS": "N031.19.49.000;E034.41.54.000;"
    },
    "אשתאול": {
        "name": "אשתאול",
        "type": "דרישה",
        "EAST": "35° 00' 41\" E ",
        "NORTH": "31° 46' 46\" N ",
        "CODE": "ESTOL",
        "LONG": 35.01138889,
        "LAT": 31.77944444,
        "atc_switch": false,
        "DMS": "N031.46.46.000;E035.00.41.000;"
    },
    "באר אורה": {
        "name": "באר אורה",
        "type": "דרישה",
        "EAST": "34° 59' 50\" E ",
        "NORTH": "29° 42' 29\" N ",
        "CODE": "BRORA",
        "LONG": 34.99722222,
        "LAT": 29.70805556,
        "atc_switch": false,
        "DMS": "N029.42.29.000;E034.59.50.000;"
    },
    "באר מנוחה": {
        "name": "באר מנוחה",
        "type": "דרישה",
        "EAST": "35° 08' 03\" E ",
        "NORTH": "30° 18' 12\" N ",
        "CODE": "BMNUH",
        "LONG": 35.13416667,
        "LAT": 30.30333333,
        "atc_switch": false,
        "DMS": "N030.18.12.000;E035.08.03.000;"
    },
    "בית אורן": {
        "name": "בית אורן",
        "type": "חובה",
        "EAST": "34° 58' 15\" E ",
        "NORTH": "32° 42' 52\" N ",
        "CODE": "BOREN",
        "LONG": 34.97083333,
        "LAT": 32.71444444,
        "atc_switch": false,
        "DMS": "N032.42.52.000;E034.58.15.000;"
    },
    "בית גוברין": {
        "name": "בית גוברין",
        "type": "דרישה",
        "EAST": "34° 53' 34\" E ",
        "NORTH": "31° 36' 22\" N ",
        "CODE": "GOVRN",
        "LONG": 34.89277778,
        "LAT": 31.60611111,
        "atc_switch": false,
        "DMS": "N031.36.22.000;E034.53.34.000;"
    },
    "בית חנינא": {
        "name": "בית חנינא",
        "type": "דרישה",
        "EAST": "35° 12' 27\" E ",
        "NORTH": "31° 49' 49\" N ",
        "CODE": "HNINA",
        "LONG": 35.2075,
        "LAT": 31.83027778,
        "atc_switch": false,
        "DMS": "N031.49.49.000;E035.12.27.000;"
    },
    "בית עובד": {
        "name": "בית עובד",
        "type": "דרישה",
        "EAST": "34° 46' 12\" E ",
        "NORTH": "31° 55' 13\" N ",
        "CODE": "BOVED",
        "LONG": 34.77,
        "LAT": 31.92027778,
        "atc_switch": false,
        "DMS": "N031.55.13.000;E034.46.12.000;"
    },
    "בית עזרא": {
        "name": "בית עזרא",
        "type": "חובה",
        "EAST": "34° 38' 45\" E ",
        "NORTH": "31° 44' 29\" N ",
        "CODE": "BEZRA",
        "LONG": 34.64583333,
        "LAT": 31.74138889,
        "atc_switch": false,
        "DMS": "N031.44.29.000;E034.38.45.000;"
    },
    "בית קמה": {
        "name": "בית קמה",
        "type": "דרישה",
        "EAST": "34° 45' 56\" E ",
        "NORTH": "31° 26' 30\" N ",
        "CODE": "BKAMA",
        "LONG": 34.76555556,
        "LAT": 31.44166667,
        "atc_switch": false,
        "DMS": "N031.26.30.000;E034.45.56.000;"
    },
    "בית שמש": {
        "name": "בית שמש",
        "type": "דרישה",
        "EAST": "34° 58' 53\" E ",
        "NORTH": "31° 45' 17\" N ",
        "CODE": "BSEMS",
        "LONG": 34.98138889,
        "LAT": 31.75472222,
        "atc_switch": false,
        "DMS": "N031.45.17.000;E034.58.53.000;"
    },
    "בן גוריון": {
        "name": "בן גוריון",
        "type": "ARP",
        "EAST": "34° 53' 08\" E ",
        "NORTH": "32° 00' 34\" N ",
        "CODE": "LLBG",
        "LONG": 34.88555556,
        "LAT": 32.00944444,
        "atc_switch": false,
        "DMS": "N032.00.34.000;E034.53.08.000;"
    },
    "בני דרור": {
        "name": "בני דרור",
        "type": "חובה",
        "EAST": "34° 53' 28\" E ",
        "NORTH": "32° 15' 26\" N ",
        "CODE": "DEROR",
        "LONG": 34.89111111,
        "LAT": 32.25722222,
        "atc_switch": true,
        "DMS": "N032.15.26.000;E034.53.28.000;"
    },
    "בצרה": {
        "name": "בצרה",
        "type": "חובה",
        "EAST": "34° 52' 57\" E ",
        "NORTH": "32° 13' 07\" N ",
        "CODE": "BAZRA",
        "LONG": 34.8825,
        "LAT": 32.21861111,
        "atc_switch": false,
        "DMS": "N032.13.07.000;E034.52.57.000;"
    },
    "ברור חיל": {
        "name": "ברור חיל",
        "type": "דרישה",
        "EAST": "34° 37' 57\" E ",
        "NORTH": "31° 33' 28\" N ",
        "CODE": "BHAIL",
        "LONG": 34.6325,
        "LAT": 31.55777778,
        "atc_switch": false,
        "DMS": "N031.33.28.000;E034.37.57.000;"
    },
    "בת גלים": {
        "name": "בת גלים",
        "type": "חובה",
        "EAST": "34° 58' 52\" E ",
        "NORTH": "32° 50' 28\" N ",
        "CODE": "GALIM",
        "LONG": 34.98111111,
        "LAT": 32.84111111,
        "atc_switch": false,
        "DMS": "N032.50.28.000;E034.58.52.000;"
    },
    "גבולות": {
        "name": "גבולות",
        "type": "ARP",
        "EAST": "34° 27' 37\" E ",
        "NORTH": "31° 13' 40\" N ",
        "CODE": "GVULT",
        "LONG": 34.46027778,
        "LAT": 31.22777778,
        "atc_switch": false,
        "DMS": "N031.13.40.000;E034.27.37.000;"
    },
    "גברעם": {
        "name": "גברעם",
        "type": "דרישה",
        "EAST": "34° 36' 37\" E ",
        "NORTH": "31° 35' 36\" N ",
        "CODE": "GVARM",
        "LONG": 34.61027778,
        "LAT": 31.59333333,
        "atc_switch": false,
        "DMS": "N031.35.36.000;E034.36.37.000;"
    },
    "גורל": {
        "name": "גורל",
        "type": "חובה",
        "EAST": "34° 47' 12\" E ",
        "NORTH": "31° 19' 29\" N ",
        "CODE": "GORAL",
        "LONG": 34.78666667,
        "LAT": 31.32472222,
        "atc_switch": false,
        "DMS": "N031.19.29.000;E034.47.12.000;"
    },
    "גילעם": {
        "name": "גילעם",
        "type": "חובה",
        "EAST": "35° 07' 57\" E ",
        "NORTH": "32° 49' 17\" N ",
        "CODE": "GILAM",
        "LONG": 35.1325,
        "LAT": 32.82138889,
        "atc_switch": true,
        "DMS": "N032.49.17.000;E035.07.57.000;"
    },
    "גני עם": {
        "name": "גני עם",
        "type": "חובה",
        "EAST": "34° 53' 39\" E ",
        "NORTH": "32° 09' 01\" N ",
        "CODE": "GNYAM",
        "LONG": 34.89416667,
        "LAT": 32.15027778,
        "atc_switch": true,
        "DMS": "N032.09.01.000;E034.53.39.000;"
    },
    "דוגית": {
        "name": "דוגית",
        "type": "חובה",
        "EAST": "35° 03' 06\" E ",
        "NORTH": "32° 51' 09\" N ",
        "CODE": "DUGIT",
        "LONG": 35.05166667,
        "LAT": 32.8525,
        "atc_switch": false,
        "DMS": "N032.51.09.000;E035.03.06.000;"
    },
    "דימונה": {
        "name": "דימונה",
        "type": "חובה",
        "EAST": "35° 00' 21\" E ",
        "NORTH": "31° 04' 04\" N ",
        "CODE": "DIMON",
        "LONG": 35.00583333,
        "LAT": 31.06777778,
        "atc_switch": true,
        "DMS": "N031.04.04.000;E035.00.21.000;"
    },
    "דינה": {
        "name": "דינה",
        "type": "חובה",
        "EAST": "34° 38' 26\" E ",
        "NORTH": "32° 01' 26\" N ",
        "CODE": "DEENA",
        "LONG": 34.64055556,
        "LAT": 32.02388889,
        "atc_switch": true,
        "DMS": "N032.01.26.000;E034.38.26.000;"
    },
    "דליה": {
        "name": "דליה",
        "type": "חובה",
        "EAST": "35° 05' 00\" E ",
        "NORTH": "32° 35' 49\" N ",
        "CODE": "DALIA",
        "LONG": 35.08333333,
        "LAT": 32.59694444,
        "atc_switch": true,
        "DMS": "N032.35.49.000;E035.04.60.000;"
    },
    "הודיה": {
        "name": "הודיה",
        "type": "דרישה",
        "EAST": "34° 39' 09\" E ",
        "NORTH": "31° 40' 58\" N ",
        "CODE": "HODYA",
        "LONG": 34.6525,
        "LAT": 31.68277778,
        "atc_switch": false,
        "DMS": "N031.40.58.000;E034.39.09.000;"
    },
    "הזורע": {
        "name": "הזורע",
        "type": "דרישה",
        "EAST": "35° 07' 08\" E ",
        "NORTH": "32° 38' 53\" N ",
        "CODE": "ZOREA",
        "LONG": 35.11888889,
        "LAT": 32.64805556,
        "atc_switch": false,
        "DMS": "N032.38.53.000;E035.07.08.000;"
    },
    "החותרים": {
        "name": "החותרים",
        "type": "חובה",
        "EAST": "34° 56' 13\" E ",
        "NORTH": "32° 45' 14\" N ",
        "CODE": "HOTRM",
        "LONG": 34.93694444,
        "LAT": 32.75388889,
        "atc_switch": false,
        "DMS": "N032.45.14.000;E034.56.13.000;"
    },
    "המוביל": {
        "name": "המוביל",
        "type": "חובה",
        "EAST": "35° 14' 00\" E ",
        "NORTH": "32° 45' 33\" N ",
        "CODE": "MOVIL",
        "LONG": 35.23333333,
        "LAT": 32.75916667,
        "atc_switch": true,
        "DMS": "N032.45.33.000;E035.13.60.000;"
    },
    "הצוק": {
        "name": "הצוק",
        "type": "חובה",
        "EAST": "34° 46' 42\" E ",
        "NORTH": "32° 08' 44\" N ",
        "CODE": "HTZUK",
        "LONG": 34.77833333,
        "LAT": 32.14555556,
        "atc_switch": false,
        "DMS": "N032.08.44.000;E034.46.42.000;"
    },
    "הר ברך": {
        "name": "הר ברך",
        "type": "חובה",
        "EAST": "34° 54' 37\" E ",
        "NORTH": "29° 47' 35\" N ",
        "CODE": "BEREC",
        "LONG": 34.91027778,
        "LAT": 29.79305556,
        "atc_switch": true,
        "DMS": "N029.47.35.000;E034.54.37.000;"
    },
    "הר גבס": {
        "name": "הר גבס",
        "type": "דרישה",
        "EAST": "34° 57' 00\" E ",
        "NORTH": "30° 37' 22\" N ",
        "CODE": "HRGVS",
        "LONG": 34.95,
        "LAT": 30.62277778,
        "atc_switch": false,
        "DMS": "N030.37.22.000;E034.57.00.000;"
    },
    "הרצליה": {
        "name": "הרצליה",
        "type": "ARP",
        "EAST": "34° 50' 04\" E ",
        "NORTH": "32° 10' 46\" N ",
        "CODE": "LLHZ",
        "LONG": 34.83444444,
        "LAT": 32.17944444,
        "atc_switch": false,
        "DMS": "N032.10.46.000;E034.50.04.000;"
    },
    "וינגייט": {
        "name": "וינגייט",
        "type": "חובה",
        "EAST": "34° 49' 01\" E ",
        "NORTH": "32° 15' 20\" N ",
        "CODE": "VINGT",
        "LONG": 34.81694444,
        "LAT": 32.25555556,
        "atc_switch": false,
        "DMS": "N032.15.20.000;E034.49.01.000;"
    },
    "זכריה": {
        "name": "זכריה",
        "type": "דרישה",
        "EAST": "34° 56' 42\" E ",
        "NORTH": "31° 41' 59\" N ",
        "CODE": "ZHRYA",
        "LONG": 34.945,
        "LAT": 31.69972222,
        "atc_switch": false,
        "DMS": "N031.41.59.000;E034.56.42.000;"
    },
    "חולות": {
        "name": "חולות",
        "type": "דרישה",
        "EAST": "34° 21' 37\" E ",
        "NORTH": "30° 59' 39\" N ",
        "CODE": "HOLOT",
        "LONG": 34.36027778,
        "LAT": 30.99416667,
        "atc_switch": false,
        "DMS": "N030.59.39.000;E034.21.37.000;"
    },
    "חולתה": {
        "name": "חולתה",
        "type": "חובה",
        "EAST": "35° 37' 46\" E ",
        "NORTH": "33° 02' 37\" N ",
        "CODE": "HULAT",
        "LONG": 35.62944444,
        "LAT": 33.04361111,
        "atc_switch": true,
        "DMS": "N033.02.37.000;E035.37.46.000;"
    },
    "חורבות עבדת": {
        "name": "חורבות עבדת",
        "type": "חובה",
        "EAST": "34° 47' 36\" E ",
        "NORTH": "30° 48' 10\" N ",
        "CODE": "OVDAT",
        "LONG": 34.79333333,
        "LAT": 30.80277778,
        "atc_switch": true,
        "DMS": "N030.48.10.000;E034.47.36.000;"
    },
    "חיפה": {
        "name": "חיפה",
        "type": "ARP",
        "EAST": "35° 02' 34\" E ",
        "NORTH": "32° 48' 30\" N ",
        "CODE": "LLHA",
        "LONG": 35.04277778,
        "LAT": 32.80833333,
        "atc_switch": false,
        "DMS": "N032.48.30.000;E035.02.34.000;"
    },
    "חצבה": {
        "name": "חצבה",
        "type": "דרישה",
        "EAST": "35° 14' 11\" E ",
        "NORTH": "30° 46' 24\" N ",
        "CODE": "HAZVA",
        "LONG": 35.23638889,
        "LAT": 30.77333333,
        "atc_switch": false,
        "DMS": "N030.46.24.000;E035.14.11.000;"
    },
    "חצור": {
        "name": "חצור",
        "type": "ARP",
        "EAST": "34° 43' 23\" E ",
        "NORTH": "31° 45' 28\" N ",
        "CODE": "LLHS",
        "LONG": 34.72305556,
        "LAT": 31.75777778,
        "atc_switch": false,
        "DMS": "N031.45.28.000;E034.43.23.000;"
    },
    "חצרים": {
        "name": "חצרים",
        "type": "ARP",
        "EAST": "34° 39' 18\" E ",
        "NORTH": "31° 14' 36\" N ",
        "CODE": "LLHB",
        "LONG": 34.655,
        "LAT": 31.24333333,
        "atc_switch": false,
        "DMS": "N031.14.36.000;E034.39.18.000;"
    },
    "טירת צבי": {
        "name": "טירת צבי",
        "type": "דרישה",
        "EAST": "35° 31' 36\" E ",
        "NORTH": "32° 25' 28\" N ",
        "CODE": "TIRAT",
        "LONG": 35.52666667,
        "LAT": 32.42444444,
        "atc_switch": false,
        "DMS": "N032.25.28.000;E035.31.36.000;"
    },
    "טללים": {
        "name": "טללים",
        "type": "דרישה",
        "EAST": "34° 45' 44\" E ",
        "NORTH": "30° 59' 26\" N ",
        "CODE": "TLLIM",
        "LONG": 34.76222222,
        "LAT": 30.99055556,
        "atc_switch": false,
        "DMS": "N030.59.26.000;E034.45.44.000;"
    },
    "יבנה מזרח": {
        "name": "יבנה מזרח",
        "type": "דרישה",
        "EAST": "34° 45' 25\" E ",
        "NORTH": "31° 52' 19\" N ",
        "CODE": "YAVNE",
        "LONG": 34.75694444,
        "LAT": 31.87194444,
        "atc_switch": false,
        "DMS": "N031.52.19.000;E034.45.25.000;"
    },
    "יהל": {
        "name": "יהל",
        "type": "דרישה",
        "EAST": "35° 08' 00\" E ",
        "NORTH": "30° 04' 56\" N ",
        "CODE": "YAHEL",
        "LONG": 35.13333333,
        "LAT": 30.08222222,
        "atc_switch": false,
        "DMS": "N030.04.56.000;E035.07.60.000;"
    },
    "יטבתה": {
        "name": "יטבתה",
        "type": "דרישה",
        "EAST": "35° 04' 02\" E ",
        "NORTH": "29° 54' 03\" N ",
        "CODE": "YOTVT",
        "LONG": 35.06722222,
        "LAT": 29.90083333,
        "atc_switch": false,
        "DMS": "N029.54.03.000;E035.04.02.000;"
    },
    "ים אשדוד": {
        "name": "ים אשדוד",
        "type": "דרישה",
        "EAST": "34° 27' 23\" E ",
        "NORTH": "31° 48' 37\" N ",
        "CODE": "YASDD",
        "LONG": 34.45638889,
        "LAT": 31.81027778,
        "atc_switch": false,
        "DMS": "N031.48.37.000;E034.27.23.000;"
    },
    "ים חולון": {
        "name": "ים חולון",
        "type": "דרישה",
        "EAST": "34° 27' 38\" E ",
        "NORTH": "32° 01' 21\" N ",
        "CODE": "YAHOL",
        "LONG": 34.46055556,
        "LAT": 32.0225,
        "atc_switch": false,
        "DMS": "N032.01.21.000;E034.27.38.000;"
    },
    "ים פלמחים": {
        "name": "ים פלמחים",
        "type": "דרישה",
        "EAST": "34° 27' 30\" E ",
        "NORTH": "31° 54' 54\" N ",
        "CODE": "YAPAL",
        "LONG": 34.45833333,
        "LAT": 31.915,
        "atc_switch": false,
        "DMS": "N031.54.54.000;E034.27.30.000;"
    },
    "ים שפיים": {
        "name": "ים שפיים",
        "type": "דרישה",
        "EAST": "34° 37' 29\" E ",
        "NORTH": "32° 13' 07\" N ",
        "CODE": "YASFA",
        "LONG": 34.62472222,
        "LAT": 32.21861111,
        "atc_switch": false,
        "DMS": "N032.13.07.000;E034.37.29.000;"
    },
    "ירוחם": {
        "name": "ירוחם",
        "type": "דרישה",
        "EAST": "34° 54' 39\" E ",
        "NORTH": "30° 59' 23\" N ",
        "CODE": "YRUHM",
        "LONG": 34.91083333,
        "LAT": 30.98972222,
        "atc_switch": false,
        "DMS": "N030.59.23.000;E034.54.39.000;"
    },
    "יתד": {
        "name": "יתד",
        "type": "דרישה",
        "EAST": "34° 20' 04\" E ",
        "NORTH": "31° 12' 17\" N ",
        "CODE": "YATED",
        "LONG": 34.33444444,
        "LAT": 31.20472222,
        "atc_switch": false,
        "DMS": "N031.12.17.000;E034.20.04.000;"
    },
    "כובשים": {
        "name": "כובשים",
        "type": "חובה",
        "EAST": "34° 45' 49\" E ",
        "NORTH": "31° 15' 52\" N ",
        "CODE": "KUVSH",
        "LONG": 34.76361111,
        "LAT": 31.26444444,
        "atc_switch": false,
        "DMS": "N031.15.52.000;E034.45.49.000;"
    },
    "כוכב הירדן": {
        "name": "כוכב הירדן",
        "type": "דרישה",
        "EAST": "35° 32' 37\" E ",
        "NORTH": "32° 35' 51\" N ",
        "CODE": "KOYAR",
        "LONG": 35.54361111,
        "LAT": 32.5975,
        "atc_switch": false,
        "DMS": "N032.35.51.000;E035.32.37.000;"
    },
    "כוכב השחר": {
        "name": "כוכב השחר",
        "type": "דרישה",
        "EAST": "35° 20' 13\" E ",
        "NORTH": "31° 57' 27\" N ",
        "CODE": "SHAHR",
        "LONG": 35.33694444,
        "LAT": 31.9575,
        "atc_switch": false,
        "DMS": "N031.57.27.000;E035.20.13.000;"
    },
    "כפר אדומים": {
        "name": "כפר אדומים",
        "type": "דרישה",
        "EAST": "35° 19' 29\" E ",
        "NORTH": "31° 48' 14\" N ",
        "CODE": "DUMIM",
        "LONG": 35.32472222,
        "LAT": 31.80388889,
        "atc_switch": false,
        "DMS": "N031.48.14.000;E035.19.29.000;"
    },
    "כפר הנגיד": {
        "name": "כפר הנגיד",
        "type": "דרישה",
        "EAST": "34° 45' 21\" E ",
        "NORTH": "31° 53' 23\" N ",
        "CODE": "NAGID",
        "LONG": 34.75583333,
        "LAT": 31.88972222,
        "atc_switch": false,
        "DMS": "N031.53.23.000;E034.45.21.000;"
    },
    "כפר חסידים": {
        "name": "כפר חסידים",
        "type": "חובה",
        "EAST": "35° 04' 40\" E ",
        "NORTH": "32° 44' 48\" N ",
        "CODE": "HASID",
        "LONG": 35.07777778,
        "LAT": 32.74666667,
        "atc_switch": true,
        "DMS": "N032.44.48.000;E035.04.40.000;"
    },
    "כפר חרוב": {
        "name": "כפר חרוב",
        "type": "חובה",
        "EAST": "35° 40' 06\" E ",
        "NORTH": "32° 45' 33\" N ",
        "CODE": "HAROV",
        "LONG": 35.66833333,
        "LAT": 32.75916667,
        "atc_switch": true,
        "DMS": "N032.45.33.000;E035.40.06.000;"
    },
    "כפר מנחם": {
        "name": "כפר מנחם",
        "type": "דרישה",
        "EAST": "34° 49' 20\" E ",
        "NORTH": "31° 44' 43\" N ",
        "CODE": "NAHEM",
        "LONG": 34.82222222,
        "LAT": 31.74527778,
        "atc_switch": false,
        "DMS": "N031.44.43.000;E034.49.20.000;"
    },
    "כפר תבור": {
        "name": "כפר תבור",
        "type": "דרישה",
        "EAST": "35° 25' 12\" E ",
        "NORTH": "32° 41' 25\" N ",
        "CODE": "TAVOR",
        "LONG": 35.42,
        "LAT": 32.69027778,
        "atc_switch": false,
        "DMS": "N032.41.25.000;E035.25.12.000;"
    },
    "כרי דשא": {
        "name": "כרי דשא",
        "type": "חובה",
        "EAST": "35° 31' 57\" E ",
        "NORTH": "32° 52' 12\" N ",
        "CODE": "DESHE",
        "LONG": 35.5325,
        "LAT": 32.87,
        "atc_switch": true,
        "DMS": "N032.52.12.000;E035.31.57.000;"
    },
    "להב": {
        "name": "להב",
        "type": "דרישה",
        "EAST": "34° 49' 37\" E ",
        "NORTH": "31° 22' 57\" N ",
        "CODE": "LAHAV",
        "LONG": 34.82694444,
        "LAT": 31.3825,
        "atc_switch": false,
        "DMS": "N031.22.57.000;E034.49.37.000;"
    },
    "להבות הבשן": {
        "name": "להבות הבשן",
        "type": "חובה",
        "EAST": "35° 38' 17\" E ",
        "NORTH": "33° 08' 46\" N ",
        "CODE": "BASAN",
        "LONG": 35.63805556,
        "LAT": 33.14611111,
        "atc_switch": true,
        "DMS": "N033.08.46.000;E035.38.17.000;"
    },
    "לטרון": {
        "name": "לטרון",
        "type": "דרישה",
        "EAST": "34° 59' 12\" E ",
        "NORTH": "31° 50' 19\" N ",
        "CODE": "LTRUN",
        "LONG": 34.98666667,
        "LAT": 31.83861111,
        "atc_switch": false,
        "DMS": "N031.50.19.000;E034.59.12.000;"
    },
    "ליעד": {
        "name": "ליעד",
        "type": "דרישה",
        "EAST": "34° 30' 54\" E ",
        "NORTH": "31° 57' 30\" N ",
        "CODE": "LIAAD",
        "LONG": 34.515,
        "LAT": 31.95833333,
        "atc_switch": false,
        "DMS": "N031.57.30.000;E034.30.54.000;"
    },
    "מגידו": {
        "name": "מגידו",
        "type": "ARP",
        "EAST": "35° 14' 05\" E ",
        "NORTH": "32° 35' 50\" N ",
        "CODE": "LLMG",
        "LONG": 35.23472222,
        "LAT": 32.59722222,
        "atc_switch": false,
        "DMS": "N032.35.50.000;E035.14.05.000;"
    },
    "מור": {
        "name": "מור",
        "type": "דרישה",
        "EAST": "35° 22' 06\" E ",
        "NORTH": "31° 15' 16\" N ",
        "CODE": "MMORR",
        "LONG": 35.36833333,
        "LAT": 31.25444444,
        "atc_switch": false,
        "DMS": "N031.15.16.000;E035.22.06.000;"
    },
    "מזלג ניצנה": {
        "name": "מזלג ניצנה",
        "type": "חובה",
        "EAST": "34° 33' 54\" E ",
        "NORTH": "30° 45' 16\" N ",
        "CODE": "NIZAN",
        "LONG": 34.565,
        "LAT": 30.75444444,
        "atc_switch": true,
        "DMS": "N030.45.16.000;E034.33.54.000;"
    },
    "מחלף דרום": {
        "name": "מחלף דרום",
        "type": "חובה",
        "EAST": "34° 56' 36\" E ",
        "NORTH": "32° 47' 46\" N ",
        "CODE": "DAROM",
        "LONG": 34.94333333,
        "LAT": 32.79611111,
        "atc_switch": true,
        "DMS": "N032.47.46.000;E034.56.36.000;"
    },
    "מחלף הראל": {
        "name": "מחלף הראל",
        "type": "דרישה",
        "EAST": "35° 08' 46\" E ",
        "NORTH": "31° 47' 55\" N ",
        "CODE": "HAREL",
        "LONG": 35.14611111,
        "LAT": 31.79861111,
        "atc_switch": false,
        "DMS": "N031.47.55.000;E035.08.46.000;"
    },
    "מחלף נשרים": {
        "name": "מחלף נשרים",
        "type": "חובה",
        "EAST": "34° 53' 30\" E ",
        "NORTH": "31° 54' 33\" N ",
        "CODE": "NSHRM",
        "LONG": 34.89166667,
        "LAT": 31.90916667,
        "atc_switch": true,
        "DMS": "N031.54.33.000;E034.53.30.000;"
    },
    "מחלף ראשון": {
        "name": "מחלף ראשון",
        "type": "דרישה",
        "EAST": "34° 47' 31\" E ",
        "NORTH": "31° 58' 37\" N ",
        "CODE": "MRISN",
        "LONG": 34.79194444,
        "LAT": 31.97694444,
        "atc_switch": false,
        "DMS": "N031.58.37.000;E034.47.31.000;"
    },
    "מיתר": {
        "name": "מיתר",
        "type": "חובה",
        "EAST": "34° 56' 17\" E ",
        "NORTH": "31° 18' 53\" N ",
        "CODE": "MYTAR",
        "LONG": 34.93805556,
        "LAT": 31.31472222,
        "atc_switch": false,
        "DMS": "N031.18.53.000;E034.56.17.000;"
    },
    "מסילה": {
        "name": "מסילה",
        "type": "דרישה",
        "EAST": "34° 54' 07\" E ",
        "NORTH": "32° 06' 41\" N ",
        "CODE": "MESIL",
        "LONG": 34.90194444,
        "LAT": 32.11138889,
        "atc_switch": false,
        "DMS": "N032.06.41.000;E034.54.07.000;"
    },
    "מעלה מישר": {
        "name": "מעלה מישר",
        "type": "דרישה",
        "EAST": "34° 56' 37\" E ",
        "NORTH": "30° 30' 06\" N ",
        "CODE": "MESAR",
        "LONG": 34.94361111,
        "LAT": 30.50166667,
        "atc_switch": false,
        "DMS": "N030.30.06.000;E034.56.37.000;"
    },
    "מצדה": {
        "name": "מצדה",
        "type": "ARP",
        "EAST": "35° 23' 18\" E ",
        "NORTH": "31° 19' 45\" N ",
        "CODE": "LLMZ",
        "LONG": 35.38833333,
        "LAT": 31.32916667,
        "atc_switch": false,
        "DMS": "N031.19.45.000;E035.23.18.000;"
    },
    "מצפה שלם": {
        "name": "מצפה שלם",
        "type": "דרישה",
        "EAST": "35° 24' 09\" E ",
        "NORTH": "31° 33' 31\" N ",
        "CODE": "SHALM",
        "LONG": 35.4025,
        "LAT": 31.55861111,
        "atc_switch": false,
        "DMS": "N031.33.31.000;E035.24.09.000;"
    },
    "משמר העמק": {
        "name": "משמר העמק",
        "type": "דרישה",
        "EAST": "35° 08' 30\" E ",
        "NORTH": "32° 36' 54\" N ",
        "CODE": "EMMEK",
        "LONG": 35.14166667,
        "LAT": 32.615,
        "atc_switch": false,
        "DMS": "N032.36.54.000;E035.08.30.000;"
    },
    "נבטים": {
        "name": "נבטים",
        "type": "חובה",
        "EAST": "35° 01' 06\" E ",
        "NORTH": "31° 12' 48\" N ",
        "CODE": "NEVATIM",
        "LONG": 35.01833333,
        "LAT": 31.21333333,
        "atc_switch": false,
        "DMS": "N031.12.48.000;E035.01.06.000;"
    },
    "נגב": {
        "name": "נגב",
        "type": "ARP",
        "EAST": "35° 02' 21\" E ",
        "NORTH": "31° 11' 44\" N ",
        "CODE": "LLNV",
        "LONG": 35.03916667,
        "LAT": 31.19555556,
        "atc_switch": false,
        "DMS": "N031.11.44.000;E035.02.21.000;"
    },
    "נווה זוהר": {
        "name": "נווה זוהר",
        "type": "דרישה",
        "EAST": "35° 22' 21\" E ",
        "NORTH": "31° 09' 03\" N ",
        "CODE": "ZOHAR",
        "LONG": 35.3725,
        "LAT": 31.15083333,
        "atc_switch": false,
        "DMS": "N031.09.03.000;E035.22.21.000;"
    },
    "נחלה": {
        "name": "נחלה",
        "type": "דרישה",
        "EAST": "34° 48' 33\" E ",
        "NORTH": "31° 39' 23\" N ",
        "CODE": "NAHLA",
        "LONG": 34.80916667,
        "LAT": 31.65638889,
        "atc_switch": false,
        "DMS": "N031.39.23.000;E034.48.33.000;"
    },
    "נטעים": {
        "name": "נטעים",
        "type": "חובה",
        "EAST": "34° 46' 51\" E ",
        "NORTH": "31° 56' 37\" N ",
        "CODE": "NTAIM",
        "LONG": 34.78083333,
        "LAT": 31.94361111,
        "atc_switch": true,
        "DMS": "N031.56.37.000;E034.46.51.000;"
    },
    "ניצן": {
        "name": "ניצן",
        "type": "דרישה",
        "EAST": "34° 34' 14\" E ",
        "NORTH": "31° 43' 27\" N ",
        "CODE": "NITZA",
        "LONG": 34.57055556,
        "LAT": 31.72416667,
        "atc_switch": false,
        "DMS": "N031.43.27.000;E034.34.14.000;"
    },
    "ניר בנים": {
        "name": "ניר בנים",
        "type": "חובה",
        "EAST": "34° 45' 53\" E ",
        "NORTH": "31° 40' 41\" N ",
        "CODE": "BANIM",
        "LONG": 34.76472222,
        "LAT": 31.67805556,
        "atc_switch": true,
        "DMS": "N031.40.41.000;E034.45.53.000;"
    },
    "נמל אשדוד": {
        "name": "נמל אשדוד",
        "type": "חובה",
        "EAST": "34° 37' 31\" E ",
        "NORTH": "31° 50' 00\" N ",
        "CODE": "NMASD",
        "LONG": 34.62527778,
        "LAT": 31.83333333,
        "atc_switch": true,
        "DMS": "N031.49.60.000;E034.37.31.000;"
    },
    "נעם": {
        "name": "נעם",
        "type": "חובה",
        "EAST": "34° 46' 33\" E ",
        "NORTH": "31° 34' 17\" N ",
        "CODE": "NOAAM",
        "LONG": 34.77583333,
        "LAT": 31.57138889,
        "atc_switch": true,
        "DMS": "N031.34.17.000;E034.46.33.000;"
    },
    "נעמה": {
        "name": "נעמה",
        "type": "דרישה",
        "EAST": "35° 27' 45\" E ",
        "NORTH": "31° 54' 31\" N ",
        "CODE": "NAAMA",
        "LONG": 35.4625,
        "LAT": 31.90861111,
        "atc_switch": false,
        "DMS": "N031.54.31.000;E035.27.45.000;"
    },
    "נצר סירני": {
        "name": "נצר סירני",
        "type": "דרישה",
        "EAST": "34° 49' 48\" E ",
        "NORTH": "31° 55' 41\" N ",
        "CODE": "SIRNI",
        "LONG": 34.83,
        "LAT": 31.92805556,
        "atc_switch": false,
        "DMS": "N031.55.41.000;E034.49.48.000;"
    },
    "נתיבות": {
        "name": "נתיבות",
        "type": "דרישה",
        "EAST": "34° 35' 57\" E ",
        "NORTH": "31° 25' 45\" N ",
        "CODE": "NTVOT",
        "LONG": 34.59916667,
        "LAT": 31.42916667,
        "atc_switch": false,
        "DMS": "N031.25.45.000;E034.35.57.000;"
    },
    "סופרלנד": {
        "name": "סופרלנד",
        "type": "חובה",
        "EAST": "34° 44' 30\" E ",
        "NORTH": "31° 58' 35\" N ",
        "CODE": "SUPER",
        "LONG": 34.74166667,
        "LAT": 31.97638889,
        "atc_switch": false,
        "DMS": "N031.58.35.000;E034.44.30.000;"
    },
    "סיגל": {
        "name": "סיגל",
        "type": "חובה",
        "EAST": "34° 17' 34\" E ",
        "NORTH": "31° 11' 42\" N ",
        "CODE": "SIGAL",
        "LONG": 34.29277778,
        "LAT": 31.195,
        "atc_switch": true,
        "DMS": "N031.11.42.000;E034.17.34.000;"
    },
    "סמר": {
        "name": "סמר",
        "type": "חובה",
        "EAST": "35° 01' 43\" E ",
        "NORTH": "29° 49' 53\" N ",
        "CODE": "SAMAR",
        "LONG": 35.02861111,
        "LAT": 29.83138889,
        "atc_switch": true,
        "DMS": "N029.49.53.000;E035.01.43.000;"
    },
    "סער": {
        "name": "סער",
        "type": "דרישה",
        "EAST": "34° 45' 10\" E ",
        "NORTH": "32° 17' 45\" N ",
        "CODE": "SAHAR",
        "LONG": 34.75277778,
        "LAT": 32.29583333,
        "atc_switch": false,
        "DMS": "N032.17.45.000;E034.45.10.000;"
    },
    "עובדה": {
        "name": "עובדה",
        "type": "ARP",
        "EAST": "34° 56' 27\" E ",
        "NORTH": "29° 56' 06\" N ",
        "CODE": "LLOV",
        "LONG": 34.94083333,
        "LAT": 29.935,
        "atc_switch": false,
        "DMS": "N029.56.06.000;E034.56.27.000;"
    },
    "עומר": {
        "name": "עומר",
        "type": "חובה",
        "EAST": "34° 49' 42\" E ",
        "NORTH": "31° 16' 29\" N ",
        "CODE": "OMMER",
        "LONG": 34.82833333,
        "LAT": 31.27472222,
        "atc_switch": true,
        "DMS": "N031.16.29.000;E034.49.42.000;"
    },
    "עזוז": {
        "name": "עזוז",
        "type": "דרישה",
        "EAST": "34° 28' 13\" E ",
        "NORTH": "30° 48' 00\" N ",
        "CODE": "AZOOZ",
        "LONG": 34.47027778,
        "LAT": 30.8,
        "atc_switch": false,
        "DMS": "N030.48.00.000;E034.28.13.000;"
    },
    "עין יהב": {
        "name": "עין יהב",
        "type": "ARP",
        "EAST": "35° 12' 11\" E ",
        "NORTH": "30° 37' 18\" N ",
        "CODE": "LLEY",
        "LONG": 35.20305556,
        "LAT": 30.62166667,
        "atc_switch": false,
        "DMS": "N030.37.18.000;E035.12.11.000;"
    },
    "עין שמר": {
        "name": "עין שמר",
        "type": "ARP",
        "EAST": "35° 00' 12\" E ",
        "NORTH": "32° 26' 29\" N ",
        "CODE": "LLES",
        "LONG": 35.00333333,
        "LAT": 32.44138889,
        "atc_switch": false,
        "DMS": "N032.26.29.000;E035.00.12.000;"
    },
    "עינות צוקים": {
        "name": "עינות צוקים",
        "type": "חובה",
        "EAST": "35° 26' 59\" E ",
        "NORTH": "31° 42' 58\" N ",
        "CODE": "ZUKIM",
        "LONG": 35.44972222,
        "LAT": 31.71611111,
        "atc_switch": true,
        "DMS": "N031.42.58.000;E035.26.59.000;"
    },
    "עירון": {
        "name": "עירון",
        "type": "דרישה",
        "EAST": "35° 01' 28\" E ",
        "NORTH": "32° 28' 51\" N ",
        "CODE": "EIRON",
        "LONG": 35.02444444,
        "LAT": 32.48083333,
        "atc_switch": false,
        "DMS": "N032.28.51.000;E035.01.28.000;"
    },
    "עכו": {
        "name": "עכו",
        "type": "חובה",
        "EAST": "35° 05' 47\" E ",
        "NORTH": "32° 55' 07\" N ",
        "CODE": "AAKKO",
        "LONG": 35.09638889,
        "LAT": 32.91861111,
        "atc_switch": true,
        "DMS": "N032.55.07.000;E035.05.47.000;"
    },
    "עמיעוז": {
        "name": "עמיעוז",
        "type": "דרישה",
        "EAST": "34° 24' 10\" E ",
        "NORTH": "31° 15' 24\" N ",
        "CODE": "AMIOZ",
        "LONG": 34.40277778,
        "LAT": 31.25666667,
        "atc_switch": false,
        "DMS": "N031.15.24.000;E034.24.10.000;"
    },
    "פיק": {
        "name": "פיק",
        "type": "ARP",
        "EAST": "35° 43' 02\" E ",
        "NORTH": "32° 47' 07\" N ",
        "CODE": "LLFK",
        "LONG": 35.71722222,
        "LAT": 32.78527778,
        "atc_switch": false,
        "DMS": "N032.47.07.000;E035.43.02.000;"
    },
    "פלג": {
        "name": "פלג",
        "type": "דרישה",
        "EAST": "34° 50' 14\" E ",
        "NORTH": "32° 19' 48\" N ",
        "CODE": "PELEG",
        "LONG": 34.83722222,
        "LAT": 32.33,
        "atc_switch": false,
        "DMS": "N032.19.48.000;E034.50.14.000;"
    },
    "פלמחים": {
        "name": "פלמחים",
        "type": "ARP",
        "EAST": "34° 41' 24\" E ",
        "NORTH": "31° 53' 54\" N ",
        "CODE": "LLPL",
        "LONG": 34.69,
        "LAT": 31.89833333,
        "atc_switch": false,
        "DMS": "N031.53.54.000;E034.41.24.000;"
    },
    "פרדס": {
        "name": "פרדס",
        "type": "חובה",
        "EAST": "34° 50' 52\" E ",
        "NORTH": "32° 06' 10\" N ",
        "CODE": "PARDS",
        "LONG": 34.84777778,
        "LAT": 32.10277778,
        "atc_switch": true,
        "DMS": "N032.06.10.000;E034.50.52.000;"
    },
    "צדפה": {
        "name": "צדפה",
        "type": "דרישה",
        "EAST": "34° 35' 59\" E ",
        "NORTH": "31° 46' 54\" N ",
        "CODE": "ZDAFA",
        "LONG": 34.59972222,
        "LAT": 31.78166667,
        "atc_switch": true,
        "DMS": "N031.46.54.000;E034.35.59.000;"
    },
    "צומת אשדוד": {
        "name": "צומת אשדוד",
        "type": "חובה",
        "EAST": "34° 42' 30\" E ",
        "NORTH": "31° 49' 34\" N ",
        "CODE": "ZASHD",
        "LONG": 34.70833333,
        "LAT": 31.82611111,
        "atc_switch": true,
        "DMS": "N031.49.34.000;E034.42.30.000;"
    },
    "צומת הנגב": {
        "name": "צומת הנגב",
        "type": "דרישה",
        "EAST": "34° 50' 17\" E ",
        "NORTH": "31° 03' 58\" N ",
        "CODE": "NEGEV",
        "LONG": 34.83805556,
        "LAT": 31.06611111,
        "atc_switch": false,
        "DMS": "N031.03.58.000;E034.50.17.000;"
    },
    "צומת הערבה": {
        "name": "צומת הערבה",
        "type": "דרישה",
        "EAST": "35° 18' 33\" E ",
        "NORTH": "30° 59' 22\" N ",
        "CODE": "ARAVA",
        "LONG": 35.30916667,
        "LAT": 30.98944444,
        "atc_switch": false,
        "DMS": "N030.59.22.000;E035.18.33.000;"
    },
    "צומת הרוחות": {
        "name": "צומת הרוחות",
        "type": "חובה",
        "EAST": "34° 48' 32\" E ",
        "NORTH": "30° 39' 36\" N ",
        "CODE": "RUHOT",
        "LONG": 34.80888889,
        "LAT": 30.66,
        "atc_switch": true,
        "DMS": "N030.39.36.000;E034.48.32.000;"
    },
    "צומת השרון": {
        "name": "צומת השרון",
        "type": "דרישה",
        "EAST": "34° 54' 14\" E ",
        "NORTH": "32° 19' 23\" N ",
        "CODE": "SHARO",
        "LONG": 34.90388889,
        "LAT": 32.32305556,
        "atc_switch": false,
        "DMS": "N032.19.23.000;E034.54.14.000;"
    },
    "צומת חתרורים": {
        "name": "צומת חתרורים",
        "type": "חובה",
        "EAST": "35° 14' 54\" E ",
        "NORTH": "31° 13' 08\" N ",
        "CODE": "HATRU",
        "LONG": 35.24833333,
        "LAT": 31.21888889,
        "atc_switch": true,
        "DMS": "N031.13.08.000;E035.14.54.000;"
    },
    "צומת כנות": {
        "name": "צומת כנות",
        "type": "חובה",
        "EAST": "34° 45' 48\" E ",
        "NORTH": "31° 48' 15\" N ",
        "CODE": "KANOT",
        "LONG": 34.76333333,
        "LAT": 31.80416667,
        "atc_switch": false,
        "DMS": "N031.48.15.000;E034.45.48.000;"
    },
    "צומת להבים": {
        "name": "צומת להבים",
        "type": "דרישה",
        "EAST": "34° 47' 36\" E ",
        "NORTH": "31° 22' 21\" N ",
        "CODE": "ZLHAV",
        "LONG": 34.79333333,
        "LAT": 31.3725,
        "atc_switch": false,
        "DMS": "N031.22.21.000;E034.47.36.000;"
    },
    "צומת מגידו": {
        "name": "צומת מגידו",
        "type": "חובה",
        "EAST": "35° 11' 28\" E ",
        "NORTH": "32° 34' 22\" N ",
        "CODE": "ZMGID",
        "LONG": 35.19111111,
        "LAT": 32.57277778,
        "atc_switch": true,
        "DMS": "N032.34.22.000;E035.11.28.000;"
    },
    "צומת מגן": {
        "name": "צומת מגן",
        "type": "חובה",
        "EAST": "34° 25' 56\" E ",
        "NORTH": "31° 17' 38\" N ",
        "CODE": "ZMGEN",
        "LONG": 34.43222222,
        "LAT": 31.29388889,
        "atc_switch": true,
        "DMS": "N031.17.38.000;E034.25.56.000;"
    },
    "חדרה": {
        "name": "חדרה",
        "type": "דרישה",
        "EAST": "34° 54' 44\" E ",
        "NORTH": "32° 27' 53\" N ",
        "CODE": "HADRA",
        "LONG": 34.91222222,
        "LAT": 32.46472222,
        "atc_switch": false,
        "DMS": "N032.27.53.000;E034.54.44.000;"
    },
    "צומת נחשון": {
        "name": "צומת נחשון",
        "type": "דרישה",
        "EAST": "34° 55' 01\" E ",
        "NORTH": "31° 48' 56\" N ",
        "CODE": "NCSHN",
        "LONG": 34.91694444,
        "LAT": 31.81555556,
        "atc_switch": false,
        "DMS": "N031.48.56.000;E034.55.01.000;"
    },
    "צומת עפולה": {
        "name": "צומת עפולה",
        "type": "חובה",
        "EAST": "35° 16' 55\" E ",
        "NORTH": "32° 36' 13\" N ",
        "CODE": "AFULA",
        "LONG": 35.28194444,
        "LAT": 32.60361111,
        "atc_switch": true,
        "DMS": "N032.36.13.000;E035.16.55.000;"
    },
    "צומת ערד": {
        "name": "צומת ערד",
        "type": "חובה",
        "EAST": "35° 12' 35\" E ",
        "NORTH": "31° 15' 16\" N ",
        "CODE": "ARRAD",
        "LONG": 35.20972222,
        "LAT": 31.25444444,
        "atc_switch": true,
        "DMS": "N031.15.16.000;E035.12.35.000;"
    },
    "צומת פורדיס": {
        "name": "צומת פורדיס",
        "type": "דרישה",
        "EAST": "34° 56' 47\" E ",
        "NORTH": "32° 35' 31\" N ",
        "CODE": "FRDIS",
        "LONG": 34.94638889,
        "LAT": 32.59194444,
        "atc_switch": false,
        "DMS": "N032.35.31.000;E034.56.47.000;"
    },
    "צומת פצאל": {
        "name": "צומת פצאל",
        "type": "דרישה",
        "EAST": "35° 27' 47\" E ",
        "NORTH": "32° 02' 53\" N ",
        "CODE": "FAZEL",
        "LONG": 35.46305556,
        "LAT": 32.04805556,
        "atc_switch": false,
        "DMS": "N032.02.53.000;E035.27.47.000;"
    },
    "צומת ציחור": {
        "name": "צומת ציחור",
        "type": "דרישה",
        "EAST": "35° 01' 12\" E ",
        "NORTH": "30° 16' 36\" N ",
        "CODE": "ZZHOR",
        "LONG": 35.02,
        "LAT": 30.27666667,
        "atc_switch": false,
        "DMS": "N030.16.36.000;E035.01.12.000;"
    },
    "צומת צפית": {
        "name": "צומת צפית",
        "type": "דרישה",
        "EAST": "35° 11' 59\" E ",
        "NORTH": "31° 02' 33\" N ",
        "CODE": "ZAFIT",
        "LONG": 35.19972222,
        "LAT": 31.0425,
        "atc_switch": false,
        "DMS": "N031.02.33.000;E035.11.59.000;"
    },
    "צומת קטורה": {
        "name": "צומת קטורה",
        "type": "חובה",
        "EAST": "35° 04' 35\" E ",
        "NORTH": "29° 59' 22\" N ",
        "CODE": "KTORA",
        "LONG": 35.07638889,
        "LAT": 29.98944444,
        "atc_switch": true,
        "DMS": "N029.59.22.000;E035.04.35.000;"
    },
    "צומת שוקת": {
        "name": "צומת שוקת",
        "type": "חובה",
        "EAST": "34° 54' 04\" E ",
        "NORTH": "31° 18' 27\" N ",
        "CODE": "SOKET",
        "LONG": 34.90111111,
        "LAT": 31.3075,
        "atc_switch": true,
        "DMS": "N031.18.27.000;E034.54.04.000;"
    },
    "צופר": {
        "name": "צופר",
        "type": "דרישה",
        "EAST": "35° 11' 12\" E ",
        "NORTH": "30° 33' 35\" N ",
        "CODE": "ZOFAR",
        "LONG": 35.18666667,
        "LAT": 30.55972222,
        "atc_switch": false,
        "DMS": "N030.33.35.000;E035.11.12.000;"
    },
    "צלמון": {
        "name": "צלמון",
        "type": "דרישה",
        "EAST": "35° 24' 42\" E ",
        "NORTH": "32° 51' 12\" N ",
        "CODE": "ZALMN",
        "LONG": 35.41166667,
        "LAT": 32.85333333,
        "atc_switch": false,
        "DMS": "N032.51.12.000;E035.24.42.000;"
    },
    "צפון העיר": {
        "name": "צפון העיר",
        "type": "חובה",
        "EAST": "34° 47' 29\" E ",
        "NORTH": "31° 17' 15\" N ",
        "CODE": "NCITY",
        "LONG": 34.79138889,
        "LAT": 31.2875,
        "atc_switch": true,
        "DMS": "N031.17.15.000;E034.47.29.000;"
    },
    "קאנטרי קלאב": {
        "name": "קאנטרי קלאב",
        "type": "חובה",
        "EAST": "34° 48' 05\" E ",
        "NORTH": "32° 08' 27\" N ",
        "CODE": "KNTRY",
        "LONG": 34.80138889,
        "LAT": 32.14083333,
        "atc_switch": true,
        "DMS": "N032.08.27.000;E034.48.05.000;"
    },
    "קיריון": {
        "name": "קיריון",
        "type": "חובה",
        "EAST": "35° 05' 20\" E ",
        "NORTH": "32° 50' 36\" N ",
        "CODE": "KRYON",
        "LONG": 35.08888889,
        "LAT": 32.84333333,
        "atc_switch": false,
        "DMS": "N032.50.36.000;E035.05.20.000;"
    },
    "קלור": {
        "name": "קלור",
        "type": "חובה",
        "EAST": "34° 44' 09\" E ",
        "NORTH": "32° 03' 11\" N ",
        "CODE": "CLORE",
        "LONG": 34.73583333,
        "LAT": 32.05305556,
        "atc_switch": false,
        "DMS": "N032.03.11.000;E034.44.09.000;"
    },
    "קציעות": {
        "name": "קציעות",
        "type": "ARP",
        "EAST": "34° 26' 37\" E ",
        "NORTH": "30° 51' 32\" N ",
        "CODE": "LLKZ",
        "LONG": 34.44361111,
        "LAT": 30.85888889,
        "atc_switch": false,
        "DMS": "N030.51.32.000;E034.26.37.000;"
    },
    "קרית שמונה": {
        "name": "קרית שמונה",
        "type": "ARP",
        "EAST": "35° 35' 47\" E ",
        "NORTH": "33° 12' 42\" N ",
        "CODE": "LLKS",
        "LONG": 35.59638889,
        "LAT": 33.21166667,
        "atc_switch": false,
        "DMS": "N033.12.42.000;E035.35.47.000;"
    },
    "ראש פינה": {
        "name": "ראש פינה",
        "type": "ARP",
        "EAST": "35° 34' 15\" E ",
        "NORTH": "32° 58' 50\" N ",
        "CODE": "LLIB",
        "LONG": 35.57083333,
        "LAT": 32.98055556,
        "atc_switch": false,
        "DMS": "N032.58.50.000;E035.34.15.000;"
    },
    "רווחה": {
        "name": "רווחה",
        "type": "דרישה",
        "EAST": "34° 43' 49\" E ",
        "NORTH": "31° 38' 40\" N ",
        "CODE": "REVAH",
        "LONG": 34.73027778,
        "LAT": 31.64444444,
        "atc_switch": false,
        "DMS": "N031.38.40.000;E034.43.49.000;"
    },
    "רוקח": {
        "name": "רוקח",
        "type": "דרישה",
        "EAST": "34° 48' 13\" E ",
        "NORTH": "32° 06' 09\" N ",
        "CODE": "ROKCH",
        "LONG": 34.80361111,
        "LAT": 32.1025,
        "atc_switch": false,
        "DMS": "N032.06.09.000;E034.48.13.000;"
    },
    "רידינג": {
        "name": "רידינג",
        "type": "חובה",
        "EAST": "34° 45' 45\" E ",
        "NORTH": "32° 06' 37\" N ",
        "CODE": "RIDNG",
        "LONG": 34.7625,
        "LAT": 32.11027778,
        "atc_switch": false,
        "DMS": "N032.06.37.000;E034.45.45.000;"
    },
    "רמון": {
        "name": "רמון",
        "type": "ARP",
        "EAST": "34° 40' 00\" E ",
        "NORTH": "30° 46' 30\" N ",
        "CODE": "LLRM",
        "LONG": 34.66666667,
        "LAT": 30.775,
        "atc_switch": false,
        "DMS": "N030.46.30.000;E034.40.00.000;"
    },
    "רמת דוד": {
        "name": "רמת דוד",
        "type": "ARP",
        "EAST": "35° 11' 00\" E ",
        "NORTH": "32° 40' 00\" N ",
        "CODE": "LLRD",
        "LONG": 35.18333333,
        "LAT": 32.66666667,
        "atc_switch": false,
        "DMS": "N032.40.00.000;E035.10.60.000;"
    },
    "רמת חובב": {
        "name": "רמת חובב",
        "type": "חובה",
        "EAST": "34° 48' 18\" E ",
        "NORTH": "31° 08' 08\" N ",
        "CODE": "HOVAV",
        "LONG": 34.805,
        "LAT": 31.13555556,
        "atc_switch": true,
        "DMS": "N031.08.08.000;E034.48.18.000;"
    },
    "שבי ציון": {
        "name": "שבי ציון",
        "type": "דרישה",
        "EAST": "35° 05' 36\" E ",
        "NORTH": "32° 58' 46\" N ",
        "CODE": "SZION",
        "LONG": 35.09333333,
        "LAT": 32.97944444,
        "atc_switch": false,
        "DMS": "N032.58.46.000;E035.05.36.000;"
    },
    "שגב": {
        "name": "שגב",
        "type": "דרישה",
        "EAST": "35° 15' 45\" E ",
        "NORTH": "32° 51' 40\" N ",
        "CODE": "SEGEV",
        "LONG": 35.2625,
        "LAT": 32.86111111,
        "atc_switch": false,
        "DMS": "N032.51.40.000;E035.15.45.000;"
    },
    "שדה בוקר": {
        "name": "שדה בוקר",
        "type": "חובה",
        "EAST": "34° 47' 09\" E ",
        "NORTH": "30° 52' 30\" N ",
        "CODE": "BOKER",
        "LONG": 34.78583333,
        "LAT": 30.875,
        "atc_switch": true,
        "DMS": "N030.52.30.000;E034.47.09.000;"
    },
    "שדות ים": {
        "name": "שדות ים",
        "type": "חובה",
        "EAST": "34° 53' 06\" E ",
        "NORTH": "32° 29' 48\" N ",
        "CODE": "SDTYM",
        "LONG": 34.885,
        "LAT": 32.49666667,
        "atc_switch": false,
        "DMS": "N032.29.48.000;E034.53.06.000;"
    },
    "שדרות": {
        "name": "שדרות",
        "type": "חובה",
        "EAST": "34° 35' 08\" E ",
        "NORTH": "31° 30' 24\" N ",
        "CODE": "SDROT",
        "LONG": 34.58555556,
        "LAT": 31.50666667,
        "atc_switch": true,
        "DMS": "N031.30.24.000;E034.35.08.000;"
    },
    "שובל": {
        "name": "שובל",
        "type": "חובה",
        "EAST": "34° 44' 47\" E ",
        "NORTH": "31° 24' 41\" N ",
        "CODE": "SOVAL",
        "LONG": 34.74638889,
        "LAT": 31.41138889,
        "atc_switch": true,
        "DMS": "N031.24.41.000;E034.44.47.000;"
    },
    "שורש": {
        "name": "שורש",
        "type": "חובה",
        "EAST": "35° 04' 34\" E ",
        "NORTH": "31° 47' 59\" N ",
        "CODE": "SORES",
        "LONG": 35.07611111,
        "LAT": 31.79972222,
        "atc_switch": true,
        "DMS": "N031.47.59.000;E035.04.34.000;"
    },
    "שזפון": {
        "name": "שזפון",
        "type": "חובה",
        "EAST": "35° 00' 52\" E ",
        "NORTH": "30° 02' 51\" N ",
        "CODE": "SIZFN",
        "LONG": 35.01444444,
        "LAT": 30.0475,
        "atc_switch": true,
        "DMS": "N030.02.51.000;E035.00.52.000;"
    },
    "שחרות": {
        "name": "שחרות",
        "type": "חובה",
        "EAST": "35° 00' 12\" E ",
        "NORTH": "29° 54' 28\" N ",
        "CODE": "SHRUT",
        "LONG": 35.00333333,
        "LAT": 29.90777778,
        "atc_switch": true,
        "DMS": "N029.54.28.000;E035.00.12.000;"
    },
    "שיטים": {
        "name": "שיטים",
        "type": "דרישה",
        "EAST": "35° 00' 52\" E ",
        "NORTH": "30° 10' 33\" N ",
        "CODE": "SITIM",
        "LONG": 35.01444444,
        "LAT": 30.17583333,
        "atc_switch": false,
        "DMS": "N030.10.33.000;E035.00.52.000;"
    },
    "שמרת": {
        "name": "שמרת",
        "type": "דרישה",
        "EAST": "35° 05' 24\" E ",
        "NORTH": "32° 57' 06\" N ",
        "CODE": "SMRAT",
        "LONG": 35.09,
        "LAT": 32.95166667,
        "atc_switch": false,
        "DMS": "N032.57.06.000;E035.05.24.000;"
    },
    "שער הגיא": {
        "name": "שער הגיא",
        "type": "דרישה",
        "EAST": "35° 01' 16\" E ",
        "NORTH": "31° 49' 11\" N ",
        "CODE": "SHARG",
        "LONG": 35.02111111,
        "LAT": 31.81972222,
        "atc_switch": false,
        "DMS": "N031.49.11.000;E035.01.16.000;"
    },
    "שפיים": {
        "name": "שפיים",
        "type": "חובה",
        "EAST": "34° 48' 26\" E ",
        "NORTH": "32° 12' 38\" N ",
        "CODE": "SFAIM",
        "LONG": 34.80722222,
        "LAT": 32.21055556,
        "atc_switch": true,
        "DMS": "N032.12.38.000;E034.48.26.000;"
    },
    "תימן": {
        "name": "תימן",
        "type": "ARP",
        "EAST": "34° 43' 22\" E ",
        "NORTH": "31° 17' 13\" N ",
        "CODE": "LLBS",
        "LONG": 34.72277778,
        "LAT": 31.28694444,
        "atc_switch": false,
        "DMS": "N031.17.13.000;E034.43.22.000;"
    },
    "תל אשקלון": {
        "name": "תל אשקלון",
        "type": "דרישה",
        "EAST": "34° 32' 21\" E ",
        "NORTH": "31° 39' 59\" N ",
        "CODE": "ASKLN",
        "LONG": 34.53916667,
        "LAT": 31.66638889,
        "atc_switch": false,
        "DMS": "N031.39.59.000;E034.32.21.000;"
    },
    "תל יונה": {
        "name": "תל יונה",
        "type": "חובה",
        "EAST": "34° 43' 38\" E ",
        "NORTH": "32° 00' 17\" N ",
        "CODE": "TYONA",
        "LONG": 34.72722222,
        "LAT": 32.00472222,
        "atc_switch": true,
        "DMS": "N032.00.17.000;E034.43.38.000;"
    },
    "תל נוף": {
        "name": "תל נוף",
        "type": "ARP",
        "EAST": "34° 49' 06\" E ",
        "NORTH": "31° 50' 12\" N ",
        "CODE": "LLEK",
        "LONG": 34.81833333,
        "LAT": 31.83666667,
        "atc_switch": false,
        "DMS": "N031.50.12.000;E034.49.06.000;"
    },
    "תל ערד": {
        "name": "תל ערד",
        "type": "דרישה",
        "EAST": "35° 07' 32\" E",
        "NORTH": "31° 16' 39\" N",
        "CODE": "TARAD",
        "LONG": 35.12555556,
        "LAT": 31.2775,
        "atc_switch": false,
        "DMS": "N031.16.39.000;E035.07.32.000;"
    },
    "אילן רמון": {
        "name": "אילן רמון",
        "type": "ARP",
        "EAST": "",
        "NORTH": "",
        "CODE": "LLER",
        "LONG": 35.0063531,
        "LAT": 29.7254847,
        "atc_switch": false,
        "DMS": "N029.43.31.745;E035.00.22.871;"
    },
    "הבונים": {
        "name": "הבונים",
        "type": "ARP",
        "EAST": "",
        "NORTH": "",
        "CODE": "LLBO",
        "LONG": 34.93280405178667,
        "LAT": 32.64949301191411,
        "atc_switch": false,
        "DMS": "N032.38.58.175;E034.55.58.095;"
    }
}